{
"type": "FeatureCollection",
"name": "station",
"crs": { "type": "name", "properties": { "name": "urn:ogc:def:crs:OGC:1.3:CRS84" } },
"features": [
{ "type": "Feature", "properties": { "StationNam": "金台", "X": "114.6140430453728", "Y": "30.71625121554109" }, "geometry": { "type": "Point", "coordinates": [ 114.614043045372767, 30.716251215541092 ] } },
{ "type": "Feature", "properties": { "StationNam": "施岗", "X": "114.5958513216782", "Y": "30.70882730614176" }, "geometry": { "type": "Point", "coordinates": [ 114.595851321678197, 30.70882730614176 ] } },
{ "type": "Feature", "properties": { "StationNam": "阳逻开发区", "X": "114.5626777122589", "Y": "30.70417886021383" }, "geometry": { "type": "Point", "coordinates": [ 114.562677712258903, 30.70417886021383 ] } },
{ "type": "Feature", "properties": { "StationNam": "阳逻", "X": "114.547912976121", "Y": "30.70612184314348" }, "geometry": { "type": "Point", "coordinates": [ 114.547912976121012, 30.706121843143478 ] } },
{ "type": "Feature", "properties": { "StationNam": "武生院", "X": "114.5204998714709", "Y": "30.711019675394" }, "geometry": { "type": "Point", "coordinates": [ 114.520499871470903, 30.711019675393999 ] } },
{ "type": "Feature", "properties": { "StationNam": "军民村", "X": "114.5099891707817", "Y": "30.71243831385864" }, "geometry": { "type": "Point", "coordinates": [ 114.509989170781694, 30.712438313858645 ] } },
{ "type": "Feature", "properties": { "StationNam": "沙口", "X": "114.4723450257376", "Y": "30.71153989863932" }, "geometry": { "type": "Point", "coordinates": [ 114.472345025737567, 30.711539898639323 ] } },
{ "type": "Feature", "properties": { "StationNam": "武湖", "X": "114.4244655762095", "Y": "30.70925972370648" }, "geometry": { "type": "Point", "coordinates": [ 114.424465576209471, 30.709259723706481 ] } },
{ "type": "Feature", "properties": { "StationNam": "高车", "X": "114.4034868313005", "Y": "30.71582444351182" }, "geometry": { "type": "Point", "coordinates": [ 114.403486831300484, 30.715824443511821 ] } },
{ "type": "Feature", "properties": { "StationNam": "青龙", "X": "114.3848549483792", "Y": "30.70768949979388" }, "geometry": { "type": "Point", "coordinates": [ 114.384854948379186, 30.707689499793883 ] } },
{ "type": "Feature", "properties": { "StationNam": "谌家矶", "X": "114.3675708263845", "Y": "30.68612326474898" }, "geometry": { "type": "Point", "coordinates": [ 114.367570826384451, 30.686123264748975 ] } },
{ "type": "Feature", "properties": { "StationNam": "朱家河", "X": "114.3591132024838", "Y": "30.68241279962623" }, "geometry": { "type": "Point", "coordinates": [ 114.359113202483798, 30.682412799626228 ] } },
{ "type": "Feature", "properties": { "StationNam": "幸福湾", "X": "114.3385885258506", "Y": "30.67440604529813" }, "geometry": { "type": "Point", "coordinates": [ 114.338588525850611, 30.674406045298127 ] } },
{ "type": "Feature", "properties": { "StationNam": "新荣客运站", "X": "114.3272698968388", "Y": "30.65992677440544" }, "geometry": { "type": "Point", "coordinates": [ 114.327269896838786, 30.659926774405442 ] } },
{ "type": "Feature", "properties": { "StationNam": "百步亭花园路", "X": "114.3100200642462", "Y": "30.65674300098162" }, "geometry": { "type": "Point", "coordinates": [ 114.310020064246203, 30.656743000981624 ] } },
{ "type": "Feature", "properties": { "StationNam": "后湖大道", "X": "114.3008719297584", "Y": "30.6533629643058" }, "geometry": { "type": "Point", "coordinates": [ 114.300871929758387, 30.653362964305803 ] } },
{ "type": "Feature", "properties": { "StationNam": "沌阳大道", "X": "114.1515253222457", "Y": "30.49175325107147" }, "geometry": { "type": "Point", "coordinates": [ 114.151525322245675, 30.491753251071469 ] } },
{ "type": "Feature", "properties": { "StationNam": "东风公司", "X": "114.1604989885655", "Y": "30.502497616317" }, "geometry": { "type": "Point", "coordinates": [ 114.16049898856555, 30.502497616317001 ] } },
{ "type": "Feature", "properties": { "StationNam": "体育中心", "X": "114.1654056695318", "Y": "30.50843704662679" }, "geometry": { "type": "Point", "coordinates": [ 114.165405669531822, 30.508437046626788 ] } },
{ "type": "Feature", "properties": { "StationNam": "三角湖", "X": "114.1741349590828", "Y": "30.51891818819276" }, "geometry": { "type": "Point", "coordinates": [ 114.174134959082792, 30.518918188192757 ] } },
{ "type": "Feature", "properties": { "StationNam": "汉阳客运站", "X": "114.1835314380358", "Y": "30.53023167484153" }, "geometry": { "type": "Point", "coordinates": [ 114.183531438035843, 30.530231674841527 ] } },
{ "type": "Feature", "properties": { "StationNam": "四新大道", "X": "114.1891199187669", "Y": "30.53765989948822" }, "geometry": { "type": "Point", "coordinates": [ 114.189119918766878, 30.537659899488215 ] } },
{ "type": "Feature", "properties": { "StationNam": "陶家岭", "X": "114.1963576497346", "Y": "30.54803111817342" }, "geometry": { "type": "Point", "coordinates": [ 114.19635764973458, 30.548031118173416 ] } },
{ "type": "Feature", "properties": { "StationNam": "龙阳村", "X": "114.2008459120557", "Y": "30.55532330868768" }, "geometry": { "type": "Point", "coordinates": [ 114.20084591205574, 30.555323308687683 ] } },
{ "type": "Feature", "properties": { "StationNam": "王家湾", "X": "114.2041649132226", "Y": "30.56323117019213" }, "geometry": { "type": "Point", "coordinates": [ 114.204164913222584, 30.563231170192125 ] } },
{ "type": "Feature", "properties": { "StationNam": "宗关", "X": "114.2195280059658", "Y": "30.58276248167341" }, "geometry": { "type": "Point", "coordinates": [ 114.21952800596577, 30.582762481673406 ] } },
{ "type": "Feature", "properties": { "StationNam": "双墩", "X": "114.2265896071806", "Y": "30.58911956106972" }, "geometry": { "type": "Point", "coordinates": [ 114.226589607180586, 30.589119561069719 ] } },
{ "type": "Feature", "properties": { "StationNam": "武汉商务区", "X": "114.2414582191311", "Y": "30.60004801751555" }, "geometry": { "type": "Point", "coordinates": [ 114.241458219131133, 30.600048017515547 ] } },
{ "type": "Feature", "properties": { "StationNam": "云飞路", "X": "114.2467260847696", "Y": "30.60762204987478" }, "geometry": { "type": "Point", "coordinates": [ 114.246726084769605, 30.607622049874777 ] } },
{ "type": "Feature", "properties": { "StationNam": "范湖", "X": "114.2557030054344", "Y": "30.61015565710004" }, "geometry": { "type": "Point", "coordinates": [ 114.255703005434356, 30.610155657100044 ] } },
{ "type": "Feature", "properties": { "StationNam": "菱角湖", "X": "114.2703729386366", "Y": "30.60656685439757" }, "geometry": { "type": "Point", "coordinates": [ 114.270372938636598, 30.606566854397574 ] } },
{ "type": "Feature", "properties": { "StationNam": "香港路", "X": "114.2793461497151", "Y": "30.60767058113861" }, "geometry": { "type": "Point", "coordinates": [ 114.279346149715124, 30.607670581138606 ] } },
{ "type": "Feature", "properties": { "StationNam": "惠济二路", "X": "114.2860333913832", "Y": "30.61536060792562" }, "geometry": { "type": "Point", "coordinates": [ 114.286033391383199, 30.615360607925616 ] } },
{ "type": "Feature", "properties": { "StationNam": "赵家条", "X": "114.2916397823099", "Y": "30.62027925887543" }, "geometry": { "type": "Point", "coordinates": [ 114.2916397823099, 30.620279258875431 ] } },
{ "type": "Feature", "properties": { "StationNam": "罗家庄", "X": "114.2985305280818", "Y": "30.62602767369927" }, "geometry": { "type": "Point", "coordinates": [ 114.298530528081827, 30.626027673699269 ] } },
{ "type": "Feature", "properties": { "StationNam": "二七小路", "X": "114.3023547490611", "Y": "30.63123789003458" }, "geometry": { "type": "Point", "coordinates": [ 114.302354749061109, 30.631237890034576 ] } },
{ "type": "Feature", "properties": { "StationNam": "兴业路", "X": "114.2987726822937", "Y": "30.64352485450732" }, "geometry": { "type": "Point", "coordinates": [ 114.298772682293659, 30.643524854507323 ] } },
{ "type": "Feature", "properties": { "StationNam": "后湖大道", "X": "114.2986790156564", "Y": "30.65267203228591" }, "geometry": { "type": "Point", "coordinates": [ 114.298679015656433, 30.652672032285913 ] } },
{ "type": "Feature", "properties": { "StationNam": "市民之家", "X": "114.2913663435488", "Y": "30.6636920283125" }, "geometry": { "type": "Point", "coordinates": [ 114.291366343548788, 30.663692028312497 ] } },
{ "type": "Feature", "properties": { "StationNam": "宏图大道", "X": "114.2723352342947", "Y": "30.67276862699052" }, "geometry": { "type": "Point", "coordinates": [ 114.272335234294744, 30.672768626990525 ] } },
{ "type": "Feature", "properties": { "StationNam": "市民之家", "X": "114.2913613492478", "Y": "30.66369403514491" }, "geometry": { "type": "Point", "coordinates": [ 114.291361349247836, 30.663694035144907 ] } },
{ "type": "Feature", "properties": { "StationNam": "兴业路", "X": "114.2987726816874", "Y": "30.64353185149108" }, "geometry": { "type": "Point", "coordinates": [ 114.298772681687396, 30.643531851491083 ] } },
{ "type": "Feature", "properties": { "StationNam": "二七小路", "X": "114.302354748628", "Y": "30.63124288793499" }, "geometry": { "type": "Point", "coordinates": [ 114.302354748628005, 30.631242887934988 ] } },
{ "type": "Feature", "properties": { "StationNam": "罗家庄", "X": "114.2985355205488", "Y": "30.62603666150418" }, "geometry": { "type": "Point", "coordinates": [ 114.298535520548839, 30.626036661504177 ] } },
{ "type": "Feature", "properties": { "StationNam": "菱角湖", "X": "114.2703789356817", "Y": "30.60656884789302" }, "geometry": { "type": "Point", "coordinates": [ 114.270378935681748, 30.606568847893023 ] } },
{ "type": "Feature", "properties": { "StationNam": "云飞路", "X": "114.2467140782508", "Y": "30.60762105141958" }, "geometry": { "type": "Point", "coordinates": [ 114.246714078250804, 30.607621051419578 ] } },
{ "type": "Feature", "properties": { "StationNam": "双墩", "X": "114.2265896072669", "Y": "30.58911856145035" }, "geometry": { "type": "Point", "coordinates": [ 114.226589607266874, 30.589118561450348 ] } },
{ "type": "Feature", "properties": { "StationNam": "陶家岭", "X": "114.1963576503417", "Y": "30.54802412055843" }, "geometry": { "type": "Point", "coordinates": [ 114.196357650341696, 30.548024120558431 ] } },
{ "type": "Feature", "properties": { "StationNam": "四新大道", "X": "114.1891209213409", "Y": "30.53766090084508" }, "geometry": { "type": "Point", "coordinates": [ 114.189120921340901, 30.537660900845079 ] } },
{ "type": "Feature", "properties": { "StationNam": "汉阳客运站", "X": "114.1835284300973", "Y": "30.53022767081961" }, "geometry": { "type": "Point", "coordinates": [ 114.183528430097326, 30.530227670819613 ] } },
{ "type": "Feature", "properties": { "StationNam": "三角湖", "X": "114.1741359623919", "Y": "30.51891319161378" }, "geometry": { "type": "Point", "coordinates": [ 114.174135962391944, 30.51891319161378 ] } },
{ "type": "Feature", "properties": { "StationNam": "体育中心", "X": "114.1654056697941", "Y": "30.50843404753108" }, "geometry": { "type": "Point", "coordinates": [ 114.165405669794126, 30.508434047531075 ] } },
{ "type": "Feature", "properties": { "StationNam": "东风公司", "X": "114.1605019969861", "Y": "30.50250062104765" }, "geometry": { "type": "Point", "coordinates": [ 114.160501996986127, 30.502500621047648 ] } },
{ "type": "Feature", "properties": { "StationNam": "沌阳大道", "X": "114.1515253226845", "Y": "30.49174825249545" }, "geometry": { "type": "Point", "coordinates": [ 114.15152532268452, 30.491748252495448 ] } },
{ "type": "Feature", "properties": { "StationNam": "天河机场", "X": "114.2111387380837", "Y": "30.77298482159641" }, "geometry": { "type": "Point", "coordinates": [ 114.211138738083747, 30.77298482159641 ] } },
{ "type": "Feature", "properties": { "StationNam": "航空总部", "X": "114.2218046651818", "Y": "30.73487211257936" }, "geometry": { "type": "Point", "coordinates": [ 114.221804665181764, 30.734872112579364 ] } },
{ "type": "Feature", "properties": { "StationNam": "宋家岗", "X": "114.2318577884665", "Y": "30.72553925001625" }, "geometry": { "type": "Point", "coordinates": [ 114.231857788466527, 30.725539250016251 ] } },
{ "type": "Feature", "properties": { "StationNam": "巨龙大道", "X": "114.248418766842", "Y": "30.71400646619386" }, "geometry": { "type": "Point", "coordinates": [ 114.248418766841993, 30.714006466193858 ] } },
{ "type": "Feature", "properties": { "StationNam": "盘龙城", "X": "114.2541207271174", "Y": "30.70264944257353" }, "geometry": { "type": "Point", "coordinates": [ 114.254120727117382, 30.702649442573534 ] } },
{ "type": "Feature", "properties": { "StationNam": "常青城", "X": "114.2496388749987", "Y": "30.66120995820225" }, "geometry": { "type": "Point", "coordinates": [ 114.249638874998737, 30.661209958202249 ] } },
{ "type": "Feature", "properties": { "StationNam": "金银潭", "X": "114.2373780883872", "Y": "30.65285034117889" }, "geometry": { "type": "Point", "coordinates": [ 114.237378088387246, 30.652850341178887 ] } },
{ "type": "Feature", "properties": { "StationNam": "常青花园", "X": "114.2370065755263", "Y": "30.64300652327266" }, "geometry": { "type": "Point", "coordinates": [ 114.237006575526323, 30.643006523272664 ] } },
{ "type": "Feature", "properties": { "StationNam": "长港路", "X": "114.2405969774314", "Y": "30.62961694075545" }, "geometry": { "type": "Point", "coordinates": [ 114.240596977431409, 30.629616940755451 ] } },
{ "type": "Feature", "properties": { "StationNam": "汉口火车站", "X": "114.24954356736", "Y": "30.61793847113129" }, "geometry": { "type": "Point", "coordinates": [ 114.249543567359964, 30.617938471131293 ] } },
{ "type": "Feature", "properties": { "StationNam": "范湖", "X": "114.254882010803", "Y": "30.6084836690078" }, "geometry": { "type": "Point", "coordinates": [ 114.254882010803016, 30.6084836690078 ] } },
{ "type": "Feature", "properties": { "StationNam": "王家墩东", "X": "114.2578743889669", "Y": "30.59670393428182" }, "geometry": { "type": "Point", "coordinates": [ 114.257874388966854, 30.596703934281816 ] } },
{ "type": "Feature", "properties": { "StationNam": "青年路", "X": "114.2593441551608", "Y": "30.58822339698609" }, "geometry": { "type": "Point", "coordinates": [ 114.259344155160818, 30.588223396986095 ] } },
{ "type": "Feature", "properties": { "StationNam": "中山公园", "X": "114.2674310400535", "Y": "30.58441908093673" }, "geometry": { "type": "Point", "coordinates": [ 114.267431040053538, 30.584419080936733 ] } },
{ "type": "Feature", "properties": { "StationNam": "循礼门", "X": "114.2805698726241", "Y": "30.58767582875923" }, "geometry": { "type": "Point", "coordinates": [ 114.280569872624099, 30.587675828759235 ] } },
{ "type": "Feature", "properties": { "StationNam": "江汉路", "X": "114.2868784004008", "Y": "30.58201640477496" }, "geometry": { "type": "Point", "coordinates": [ 114.286878400400838, 30.582016404774958 ] } },
{ "type": "Feature", "properties": { "StationNam": "积玉桥", "X": "114.3032323398157", "Y": "30.5636995977237" }, "geometry": { "type": "Point", "coordinates": [ 114.303232339815708, 30.563699597723698 ] } },
{ "type": "Feature", "properties": { "StationNam": "螃蟹岬", "X": "114.3120167142118", "Y": "30.5557353533416" }, "geometry": { "type": "Point", "coordinates": [ 114.312016714211751, 30.555735353341596 ] } },
{ "type": "Feature", "properties": { "StationNam": "小龟山", "X": "114.3210463637567", "Y": "30.55349397129058" }, "geometry": { "type": "Point", "coordinates": [ 114.321046363756679, 30.553493971290578 ] } },
{ "type": "Feature", "properties": { "StationNam": "洪山广场", "X": "114.3304914027103", "Y": "30.54803679681727" }, "geometry": { "type": "Point", "coordinates": [ 114.33049140271028, 30.548036796817271 ] } },
{ "type": "Feature", "properties": { "StationNam": "中南路", "X": "114.3274760162614", "Y": "30.53990627261549" }, "geometry": { "type": "Point", "coordinates": [ 114.327476016261386, 30.539906272615486 ] } },
{ "type": "Feature", "properties": { "StationNam": "宝通寺", "X": "114.3357103864125", "Y": "30.53271413019195" }, "geometry": { "type": "Point", "coordinates": [ 114.335710386412487, 30.532714130191952 ] } },
{ "type": "Feature", "properties": { "StationNam": "街道口", "X": "114.3479894481422", "Y": "30.52894165539641" }, "geometry": { "type": "Point", "coordinates": [ 114.347989448142172, 30.528941655396405 ] } },
{ "type": "Feature", "properties": { "StationNam": "广埠屯", "X": "114.3586804840231", "Y": "30.52476646814791" }, "geometry": { "type": "Point", "coordinates": [ 114.358680484023111, 30.524766468147906 ] } },
{ "type": "Feature", "properties": { "StationNam": "虎泉", "X": "114.36494608794", "Y": "30.51468333036151" }, "geometry": { "type": "Point", "coordinates": [ 114.364946087940012, 30.514683330361507 ] } },
{ "type": "Feature", "properties": { "StationNam": "杨家湾", "X": "114.3771925144075", "Y": "30.50743597147894" }, "geometry": { "type": "Point", "coordinates": [ 114.377192514407483, 30.507435971478941 ] } },
{ "type": "Feature", "properties": { "StationNam": "光谷广场", "X": "114.3941225887123", "Y": "30.50842469191747" }, "geometry": { "type": "Point", "coordinates": [ 114.394122588712349, 30.508424691917465 ] } },
{ "type": "Feature", "properties": { "StationNam": "珞雄路", "X": "114.3993079799357", "Y": "30.5091854371446" }, "geometry": { "type": "Point", "coordinates": [ 114.399307979935728, 30.509185437144602 ] } },
{ "type": "Feature", "properties": { "StationNam": "华中科技大学", "X": "114.4087068079724", "Y": "30.50971827549676" }, "geometry": { "type": "Point", "coordinates": [ 114.408706807972408, 30.509718275496759 ] } },
{ "type": "Feature", "properties": { "StationNam": "光谷大道", "X": "114.418299514566", "Y": "30.50885068952573" }, "geometry": { "type": "Point", "coordinates": [ 114.418299514565987, 30.508850689525726 ] } },
{ "type": "Feature", "properties": { "StationNam": "佳园路", "X": "114.4254003825092", "Y": "30.50234655775385" }, "geometry": { "type": "Point", "coordinates": [ 114.425400382509196, 30.502346557753846 ] } },
{ "type": "Feature", "properties": { "StationNam": "武汉东站", "X": "114.4262531586196", "Y": "30.48928643251976" }, "geometry": { "type": "Point", "coordinates": [ 114.426253158619602, 30.489286432519755 ] } },
{ "type": "Feature", "properties": { "StationNam": "黄龙山路", "X": "114.4246789736126", "Y": "30.47984305260064" }, "geometry": { "type": "Point", "coordinates": [ 114.424678973612586, 30.479843052600639 ] } },
{ "type": "Feature", "properties": { "StationNam": "金融港北", "X": "114.4148973812481", "Y": "30.46428815637869" }, "geometry": { "type": "Point", "coordinates": [ 114.414897381248096, 30.464288156378693 ] } },
{ "type": "Feature", "properties": { "StationNam": "秀湖", "X": "114.415517485173", "Y": "30.45007622984832" }, "geometry": { "type": "Point", "coordinates": [ 114.415517485172998, 30.450076229848325 ] } },
{ "type": "Feature", "properties": { "StationNam": "藏龙东街", "X": "114.4241535069184", "Y": "30.43936665388346" }, "geometry": { "type": "Point", "coordinates": [ 114.424153506918444, 30.439366653883464 ] } },
{ "type": "Feature", "properties": { "StationNam": "佛祖岭", "X": "114.4342965105833", "Y": "30.4410257838309" }, "geometry": { "type": "Point", "coordinates": [ 114.434296510583309, 30.441025783830902 ] } },
{ "type": "Feature", "properties": { "StationNam": "汉口北", "X": "114.3239885286329", "Y": "30.71426562614492" }, "geometry": { "type": "Point", "coordinates": [ 114.323988528632938, 30.714265626144918 ] } },
{ "type": "Feature", "properties": { "StationNam": "滠口新城", "X": "114.3368611212026", "Y": "30.68685443925041" }, "geometry": { "type": "Point", "coordinates": [ 114.336861121202631, 30.686854439250411 ] } },
{ "type": "Feature", "properties": { "StationNam": "滕子岗", "X": "114.3359654053267", "Y": "30.67683473889132" }, "geometry": { "type": "Point", "coordinates": [ 114.335965405326732, 30.676834738891316 ] } },
{ "type": "Feature", "properties": { "StationNam": "堤角", "X": "114.332770247239", "Y": "30.66818064085324" }, "geometry": { "type": "Point", "coordinates": [ 114.332770247239011, 30.668180640853244 ] } },
{ "type": "Feature", "properties": { "StationNam": "新荣", "X": "114.3290371599381", "Y": "30.65822216422208" }, "geometry": { "type": "Point", "coordinates": [ 114.329037159938053, 30.658222164222082 ] } },
{ "type": "Feature", "properties": { "StationNam": "丹水池", "X": "114.3245296271826", "Y": "30.64572925778456" }, "geometry": { "type": "Point", "coordinates": [ 114.324529627182557, 30.645729257784556 ] } },
{ "type": "Feature", "properties": { "StationNam": "徐州新村", "X": "114.317461244845", "Y": "30.63353301488397" }, "geometry": { "type": "Point", "coordinates": [ 114.317461244844964, 30.63353301488397 ] } },
{ "type": "Feature", "properties": { "StationNam": "二七路", "X": "114.3132814913002", "Y": "30.62740451418873" }, "geometry": { "type": "Point", "coordinates": [ 114.313281491300188, 30.627404514188733 ] } },
{ "type": "Feature", "properties": { "StationNam": "头道街", "X": "114.3084636412611", "Y": "30.62020246806608" }, "geometry": { "type": "Point", "coordinates": [ 114.308463641261142, 30.620202468066079 ] } },
{ "type": "Feature", "properties": { "StationNam": "黄浦路", "X": "114.3027060179152", "Y": "30.61080266843118" }, "geometry": { "type": "Point", "coordinates": [ 114.302706017915199, 30.610802668431177 ] } },
{ "type": "Feature", "properties": { "StationNam": "三阳路", "X": "114.2959081535699", "Y": "30.60113211165326" }, "geometry": { "type": "Point", "coordinates": [ 114.295908153569911, 30.601132111653261 ] } },
{ "type": "Feature", "properties": { "StationNam": "大智路", "X": "114.2895354022997", "Y": "30.59493257787587" }, "geometry": { "type": "Point", "coordinates": [ 114.28953540229972, 30.594932577875873 ] } },
{ "type": "Feature", "properties": { "StationNam": "循礼门", "X": "114.2814081497061", "Y": "30.58774772750424" }, "geometry": { "type": "Point", "coordinates": [ 114.281408149706081, 30.587747727504237 ] } },
{ "type": "Feature", "properties": { "StationNam": "友谊路", "X": "114.2729985909293", "Y": "30.58331722485849" }, "geometry": { "type": "Point", "coordinates": [ 114.272998590929319, 30.583317224858494 ] } },
{ "type": "Feature", "properties": { "StationNam": "利济北路", "X": "114.2647062210605", "Y": "30.57989397097356" }, "geometry": { "type": "Point", "coordinates": [ 114.264706221060521, 30.579893970973558 ] } },
{ "type": "Feature", "properties": { "StationNam": "崇仁路", "X": "114.2564890193002", "Y": "30.57637630133448" }, "geometry": { "type": "Point", "coordinates": [ 114.256489019300247, 30.576376301334477 ] } },
{ "type": "Feature", "properties": { "StationNam": "硚口路", "X": "114.2450279794752", "Y": "30.57401800679494" }, "geometry": { "type": "Point", "coordinates": [ 114.245027979475211, 30.574018006794944 ] } },
{ "type": "Feature", "properties": { "StationNam": "太平洋", "X": "114.2353165823366", "Y": "30.57649361592843" }, "geometry": { "type": "Point", "coordinates": [ 114.235316582336637, 30.576493615928431 ] } },
{ "type": "Feature", "properties": { "StationNam": "宗关", "X": "114.2209794429209", "Y": "30.58298366445403" }, "geometry": { "type": "Point", "coordinates": [ 114.220979442920921, 30.582983664454026 ] } },
{ "type": "Feature", "properties": { "StationNam": "汉西一路", "X": "114.2133632218407", "Y": "30.58793938776651" }, "geometry": { "type": "Point", "coordinates": [ 114.213363221840737, 30.587939387766507 ] } },
{ "type": "Feature", "properties": { "StationNam": "古田四路", "X": "114.2060576756322", "Y": "30.59178514009088" }, "geometry": { "type": "Point", "coordinates": [ 114.206057675632223, 30.591785140090881 ] } },
{ "type": "Feature", "properties": { "StationNam": "古田三路", "X": "114.1992495959625", "Y": "30.5958090977341" }, "geometry": { "type": "Point", "coordinates": [ 114.19924959596247, 30.595809097734104 ] } },
{ "type": "Feature", "properties": { "StationNam": "古田二路", "X": "114.1911558762802", "Y": "30.59994880929423" }, "geometry": { "type": "Point", "coordinates": [ 114.191155876280163, 30.599948809294226 ] } },
{ "type": "Feature", "properties": { "StationNam": "古田一路", "X": "114.1775129266627", "Y": "30.60690717920766" }, "geometry": { "type": "Point", "coordinates": [ 114.177512926662686, 30.60690717920766 ] } },
{ "type": "Feature", "properties": { "StationNam": "舵落口", "X": "114.1638751564792", "Y": "30.61226557089317" }, "geometry": { "type": "Point", "coordinates": [ 114.163875156479207, 30.612265570893168 ] } },
{ "type": "Feature", "properties": { "StationNam": "竹叶海", "X": "114.1582624805357", "Y": "30.61740999781119" }, "geometry": { "type": "Point", "coordinates": [ 114.158262480535655, 30.617409997811187 ] } },
{ "type": "Feature", "properties": { "StationNam": "额头湾", "X": "114.1503125944753", "Y": "30.62079012811417" }, "geometry": { "type": "Point", "coordinates": [ 114.150312594475267, 30.620790128114166 ] } },
{ "type": "Feature", "properties": { "StationNam": "五环大道", "X": "114.1332336308796", "Y": "30.62000146665005" }, "geometry": { "type": "Point", "coordinates": [ 114.13323363087963, 30.620001466650045 ] } },
{ "type": "Feature", "properties": { "StationNam": "东吴大道", "X": "114.1228693894058", "Y": "30.62725378865963" }, "geometry": { "type": "Point", "coordinates": [ 114.122869389405778, 30.627253788659626 ] } },
{ "type": "Feature", "properties": { "StationNam": "码头潭公园", "X": "114.117935858747", "Y": "30.63396160449805" }, "geometry": { "type": "Point", "coordinates": [ 114.117935858747003, 30.633961604498047 ] } },
{ "type": "Feature", "properties": { "StationNam": "三店", "X": "114.1150890064873", "Y": "30.65132341133373" }, "geometry": { "type": "Point", "coordinates": [ 114.11508900648731, 30.651323411333735 ] } },
{ "type": "Feature", "properties": { "StationNam": "径河", "X": "114.1151121579463", "Y": "30.66131801372501" }, "geometry": { "type": "Point", "coordinates": [ 114.115112157946342, 30.661318013725008 ] } },
{ "type": "Feature", "properties": { "StationNam": "葛店南站", "X": "114.6555559940893", "Y": "30.49192731192236" }, "geometry": { "type": "Point", "coordinates": [ 114.655555994089255, 30.49192731192236 ] } },
{ "type": "Feature", "properties": { "StationNam": "左岭", "X": "114.6156063853681", "Y": "30.49078624993192" }, "geometry": { "type": "Point", "coordinates": [ 114.615606385368096, 30.490786249931915 ] } },
{ "type": "Feature", "properties": { "StationNam": "未来三路", "X": "114.600951002594", "Y": "30.48912730044604" }, "geometry": { "type": "Point", "coordinates": [ 114.600951002593959, 30.489127300446036 ] } },
{ "type": "Feature", "properties": { "StationNam": "未来一路", "X": "114.580091705739", "Y": "30.48725287232982" }, "geometry": { "type": "Point", "coordinates": [ 114.580091705738965, 30.487252872329822 ] } },
{ "type": "Feature", "properties": { "StationNam": "长岭山", "X": "114.5580707462433", "Y": "30.49027996780328" }, "geometry": { "type": "Point", "coordinates": [ 114.558070746243288, 30.490279967803282 ] } },
{ "type": "Feature", "properties": { "StationNam": "光谷七路", "X": "114.5289354823608", "Y": "30.49103865021883" }, "geometry": { "type": "Point", "coordinates": [ 114.528935482360836, 30.49103865021883 ] } },
{ "type": "Feature", "properties": { "StationNam": "豹澥", "X": "114.517704568158", "Y": "30.49129764681053" }, "geometry": { "type": "Point", "coordinates": [ 114.517704568157953, 30.491297646810526 ] } },
{ "type": "Feature", "properties": { "StationNam": "光谷六路", "X": "114.5076254132949", "Y": "30.48756184386322" }, "geometry": { "type": "Point", "coordinates": [ 114.507625413294889, 30.487561843863215 ] } },
{ "type": "Feature", "properties": { "StationNam": "光谷五路", "X": "114.4976860939602", "Y": "30.48760732511052" }, "geometry": { "type": "Point", "coordinates": [ 114.497686093960198, 30.48760732511052 ] } },
{ "type": "Feature", "properties": { "StationNam": "光谷四路", "X": "114.48670206402", "Y": "30.49162533500231" }, "geometry": { "type": "Point", "coordinates": [ 114.486702064019951, 30.491625335002311 ] } },
{ "type": "Feature", "properties": { "StationNam": "光谷生物园", "X": "114.4758748188046", "Y": "30.49004916630535" }, "geometry": { "type": "Point", "coordinates": [ 114.475874818804584, 30.490049166305354 ] } },
{ "type": "Feature", "properties": { "StationNam": "光谷同济医院", "X": "114.4610008443132", "Y": "30.4876664969024" }, "geometry": { "type": "Point", "coordinates": [ 114.461000844313219, 30.487666496902403 ] } },
{ "type": "Feature", "properties": { "StationNam": "湖口", "X": "114.443271840352", "Y": "30.49029632219582" }, "geometry": { "type": "Point", "coordinates": [ 114.44327184035204, 30.490296322195821 ] } },
{ "type": "Feature", "properties": { "StationNam": "武汉东站", "X": "114.4283984646158", "Y": "30.48905140063717" }, "geometry": { "type": "Point", "coordinates": [ 114.42839846461581, 30.48905140063717 ] } },
{ "type": "Feature", "properties": { "StationNam": "军运村", "X": "114.2896065471133", "Y": "30.4298249128041" }, "geometry": { "type": "Point", "coordinates": [ 114.28960654711328, 30.429824912804104 ] } },
{ "type": "Feature", "properties": { "StationNam": "黄家湖地铁小镇", "X": "114.2926272205828", "Y": "30.4392111113613" }, "geometry": { "type": "Point", "coordinates": [ 114.292627220582816, 30.439211111361299 ] } },
{ "type": "Feature", "properties": { "StationNam": "野芷湖", "X": "114.3138347338498", "Y": "30.46448562317154" }, "geometry": { "type": "Point", "coordinates": [ 114.313834733849816, 30.464485623171544 ] } },
{ "type": "Feature", "properties": { "StationNam": "马湖", "X": "114.319575641078", "Y": "30.47416715528697" }, "geometry": { "type": "Point", "coordinates": [ 114.319575641077961, 30.474167155286974 ] } },
{ "type": "Feature", "properties": { "StationNam": "省农科院", "X": "114.3204633232956", "Y": "30.48422171391991" }, "geometry": { "type": "Point", "coordinates": [ 114.32046332329557, 30.484221713919911 ] } },
{ "type": "Feature", "properties": { "StationNam": "文昌路", "X": "114.324432945556", "Y": "30.4944042239902" }, "geometry": { "type": "Point", "coordinates": [ 114.324432945555998, 30.494404223990198 ] } },
{ "type": "Feature", "properties": { "StationNam": "文治街", "X": "114.3388101741198", "Y": "30.50264480245987" }, "geometry": { "type": "Point", "coordinates": [ 114.338810174119772, 30.502644802459869 ] } },
{ "type": "Feature", "properties": { "StationNam": "马房山", "X": "114.344859826143", "Y": "30.51784847232718" }, "geometry": { "type": "Point", "coordinates": [ 114.344859826142951, 30.517848472327181 ] } },
{ "type": "Feature", "properties": { "StationNam": "街道口", "X": "114.3473943671483", "Y": "30.527845002368" }, "geometry": { "type": "Point", "coordinates": [ 114.347394367148311, 30.527845002367997 ] } },
{ "type": "Feature", "properties": { "StationNam": "小洪山", "X": "114.3468542395395", "Y": "30.53795361289362" }, "geometry": { "type": "Point", "coordinates": [ 114.346854239539539, 30.537953612893624 ] } },
{ "type": "Feature", "properties": { "StationNam": "洪山路", "X": "114.3383110090227", "Y": "30.54784730852205" }, "geometry": { "type": "Point", "coordinates": [ 114.338311009022675, 30.547847308522055 ] } },
{ "type": "Feature", "properties": { "StationNam": "水果湖", "X": "114.3405850113948", "Y": "30.55380515286931" }, "geometry": { "type": "Point", "coordinates": [ 114.340585011394793, 30.553805152869305 ] } },
{ "type": "Feature", "properties": { "StationNam": "中南医院", "X": "114.3515680275867", "Y": "30.55913564712328" }, "geometry": { "type": "Point", "coordinates": [ 114.351568027586723, 30.559135647123284 ] } },
{ "type": "Feature", "properties": { "StationNam": "省博湖北日报", "X": "114.3597626037284", "Y": "30.5671845692888" }, "geometry": { "type": "Point", "coordinates": [ 114.359762603728441, 30.567184569288798 ] } },
{ "type": "Feature", "properties": { "StationNam": "梨园", "X": "114.364543991669", "Y": "30.57713565462102" }, "geometry": { "type": "Point", "coordinates": [ 114.364543991669024, 30.577135654621017 ] } },
{ "type": "Feature", "properties": { "StationNam": "岳家嘴", "X": "114.3555832745343", "Y": "30.57924017632256" }, "geometry": { "type": "Point", "coordinates": [ 114.355583274534325, 30.579240176322557 ] } },
{ "type": "Feature", "properties": { "StationNam": "汪家墩", "X": "114.3445621801378", "Y": "30.58749691164239" }, "geometry": { "type": "Point", "coordinates": [ 114.344562180137814, 30.587496911642386 ] } },
{ "type": "Feature", "properties": { "StationNam": "徐东", "X": "114.3401264834006", "Y": "30.59075649257883" }, "geometry": { "type": "Point", "coordinates": [ 114.340126483400581, 30.590756492578834 ] } },
{ "type": "Feature", "properties": { "StationNam": "徐家棚(8号线)", "X": "114.3304684121837", "Y": "30.59429401403903" }, "geometry": { "type": "Point", "coordinates": [ 114.330468412183663, 30.594294014039033 ] } },
{ "type": "Feature", "properties": { "StationNam": "黄浦路", "X": "114.3011761908072", "Y": "30.61084833058411" }, "geometry": { "type": "Point", "coordinates": [ 114.30117619080724, 30.610848330584108 ] } },
{ "type": "Feature", "properties": { "StationNam": "竹叶山", "X": "114.2816774597227", "Y": "30.62774244131743" }, "geometry": { "type": "Point", "coordinates": [ 114.281677459722673, 30.627742441317427 ] } },
{ "type": "Feature", "properties": { "StationNam": "中一路", "X": "114.2757388050873", "Y": "30.64232847468276" }, "geometry": { "type": "Point", "coordinates": [ 114.275738805087343, 30.64232847468276 ] } },
{ "type": "Feature", "properties": { "StationNam": "塔子湖", "X": "114.2749402310491", "Y": "30.65501483633965" }, "geometry": { "type": "Point", "coordinates": [ 114.274940231049101, 30.65501483633965 ] } },
{ "type": "Feature", "properties": { "StationNam": "宏图大道", "X": "114.2750836848093", "Y": "30.67182614015834" }, "geometry": { "type": "Point", "coordinates": [ 114.275083684809317, 30.671826140158341 ] } },
{ "type": "Feature", "properties": { "StationNam": "金潭路", "X": "114.2786115069611", "Y": "30.6796054826922" }, "geometry": { "type": "Point", "coordinates": [ 114.278611506961084, 30.679605482692203 ] } },
{ "type": "Feature", "properties": { "StationNam": "青龙山地铁小镇", "X": "114.3285751485158", "Y": "30.32122568799201" }, "geometry": { "type": "Point", "coordinates": [ 114.328575148515839, 30.321225687992012 ] } },
{ "type": "Feature", "properties": { "StationNam": "纸坊大街", "X": "114.3191243323987", "Y": "30.34721521969181" }, "geometry": { "type": "Point", "coordinates": [ 114.319124332398687, 30.347215219691808 ] } },
{ "type": "Feature", "properties": { "StationNam": "北华街", "X": "114.3181168197054", "Y": "30.36054009738054" }, "geometry": { "type": "Point", "coordinates": [ 114.318116819705438, 30.360540097380539 ] } },
{ "type": "Feature", "properties": { "StationNam": "谭鑫培公园", "X": "114.316590215055", "Y": "30.37297695456977" }, "geometry": { "type": "Point", "coordinates": [ 114.316590215055001, 30.372976954569769 ] } },
{ "type": "Feature", "properties": { "StationNam": "江夏客厅", "X": "114.316294087842", "Y": "30.39159418256616" }, "geometry": { "type": "Point", "coordinates": [ 114.316294087842039, 30.391594182566156 ] } },
{ "type": "Feature", "properties": { "StationNam": "大花岭", "X": "114.3146557170293", "Y": "30.4147656889661" }, "geometry": { "type": "Point", "coordinates": [ 114.314655717029268, 30.414765688966096 ] } },
{ "type": "Feature", "properties": { "StationNam": "新路村", "X": "114.3129598881945", "Y": "30.444029343226" }, "geometry": { "type": "Point", "coordinates": [ 114.312959888194527, 30.444029343226003 ] } },
{ "type": "Feature", "properties": { "StationNam": "野芷湖", "X": "114.3140474929358", "Y": "30.46335451275482" }, "geometry": { "type": "Point", "coordinates": [ 114.314047492935785, 30.463354512754815 ] } },
{ "type": "Feature", "properties": { "StationNam": "板桥", "X": "114.308017746192", "Y": "30.47672822512236" }, "geometry": { "type": "Point", "coordinates": [ 114.308017746191993, 30.476728225122365 ] } },
{ "type": "Feature", "properties": { "StationNam": "湖工大", "X": "114.3079370607908", "Y": "30.48608780083456" }, "geometry": { "type": "Point", "coordinates": [ 114.307937060790834, 30.486087800834561 ] } },
{ "type": "Feature", "properties": { "StationNam": "建安街", "X": "114.3083097331549", "Y": "30.50645021908468" }, "geometry": { "type": "Point", "coordinates": [ 114.308309733154942, 30.506450219084677 ] } },
{ "type": "Feature", "properties": { "StationNam": "瑞安街", "X": "114.3087491199642", "Y": "30.51732909013089" }, "geometry": { "type": "Point", "coordinates": [ 114.308749119964247, 30.51732909013089 ] } },
{ "type": "Feature", "properties": { "StationNam": "武昌火车站", "X": "114.3111978068279", "Y": "30.53487594421335" }, "geometry": { "type": "Point", "coordinates": [ 114.311197806827892, 30.534875944213354 ] } },
{ "type": "Feature", "properties": { "StationNam": "小东门", "X": "114.3130008811027", "Y": "30.5474153728431" }, "geometry": { "type": "Point", "coordinates": [ 114.313000881102681, 30.547415372843101 ] } },
{ "type": "Feature", "properties": { "StationNam": "螃蟹岬", "X": "114.3119698612592", "Y": "30.55488973563877" }, "geometry": { "type": "Point", "coordinates": [ 114.311969861259172, 30.554889735638774 ] } },
{ "type": "Feature", "properties": { "StationNam": "新河街", "X": "114.3116514886987", "Y": "30.5649597787101" }, "geometry": { "type": "Point", "coordinates": [ 114.311651488698672, 30.564959778710101 ] } },
{ "type": "Feature", "properties": { "StationNam": "湖北大学", "X": "114.3239892240558", "Y": "30.58017573361347" }, "geometry": { "type": "Point", "coordinates": [ 114.323989224055822, 30.580175733613469 ] } },
{ "type": "Feature", "properties": { "StationNam": "徐家棚(7号线)", "X": "114.326609001623", "Y": "30.59085568328565" }, "geometry": { "type": "Point", "coordinates": [ 114.326609001622955, 30.59085568328565 ] } },
{ "type": "Feature", "properties": { "StationNam": "取水楼", "X": "114.2692389983179", "Y": "30.60008346972772" }, "geometry": { "type": "Point", "coordinates": [ 114.269238998317945, 30.600083469727721 ] } },
{ "type": "Feature", "properties": { "StationNam": "王家墩东", "X": "114.2565382996", "Y": "30.59641869806521" }, "geometry": { "type": "Point", "coordinates": [ 114.256538299599981, 30.596418698065214 ] } },
{ "type": "Feature", "properties": { "StationNam": "常码头", "X": "114.2293558637046", "Y": "30.60708623795448" }, "geometry": { "type": "Point", "coordinates": [ 114.229355863704583, 30.607086237954476 ] } },
{ "type": "Feature", "properties": { "StationNam": "园博园", "X": "114.2204242521649", "Y": "30.62076934914088" }, "geometry": { "type": "Point", "coordinates": [ 114.220424252164946, 30.620769349140883 ] } },
{ "type": "Feature", "properties": { "StationNam": "园博园北", "X": "114.2178272040151", "Y": "30.63855354559475" }, "geometry": { "type": "Point", "coordinates": [ 114.217827204015066, 30.638553545594753 ] } },
{ "type": "Feature", "properties": { "StationNam": "武汉火车站", "X": "114.4188505935315", "Y": "30.60965576035797" }, "geometry": { "type": "Point", "coordinates": [ 114.418850593531545, 30.609655760357974 ] } },
{ "type": "Feature", "properties": { "StationNam": "杨春湖", "X": "114.4108166446935", "Y": "30.60757511991662" }, "geometry": { "type": "Point", "coordinates": [ 114.41081664469354, 30.607575119916621 ] } },
{ "type": "Feature", "properties": { "StationNam": "工业四路", "X": "114.4003017640535", "Y": "30.61026595302051" }, "geometry": { "type": "Point", "coordinates": [ 114.400301764053481, 30.610265953020512 ] } },
{ "type": "Feature", "properties": { "StationNam": "仁和路", "X": "114.3835399164116", "Y": "30.60745359229063" }, "geometry": { "type": "Point", "coordinates": [ 114.383539916411607, 30.607453592290629 ] } },
{ "type": "Feature", "properties": { "StationNam": "园林路", "X": "114.3725776041763", "Y": "30.60250902850646" }, "geometry": { "type": "Point", "coordinates": [ 114.372577604176328, 30.602509028506457 ] } },
{ "type": "Feature", "properties": { "StationNam": "罗家港", "X": "114.3660001270498", "Y": "30.59509508465795" }, "geometry": { "type": "Point", "coordinates": [ 114.366000127049816, 30.595095084657949 ] } },
{ "type": "Feature", "properties": { "StationNam": "铁机路", "X": "114.3633583038425", "Y": "30.58619876030685" }, "geometry": { "type": "Point", "coordinates": [ 114.363358303842517, 30.586198760306853 ] } },
{ "type": "Feature", "properties": { "StationNam": "岳家嘴", "X": "114.3564812005472", "Y": "30.57942277695108" }, "geometry": { "type": "Point", "coordinates": [ 114.356481200547151, 30.579422776951084 ] } },
{ "type": "Feature", "properties": { "StationNam": "东亭", "X": "114.3502885292551", "Y": "30.57259287195451" }, "geometry": { "type": "Point", "coordinates": [ 114.350288529255053, 30.572592871954512 ] } },
{ "type": "Feature", "properties": { "StationNam": "青鱼嘴", "X": "114.3443723270703", "Y": "30.56605815659165" }, "geometry": { "type": "Point", "coordinates": [ 114.344372327070261, 30.566058156591652 ] } },
{ "type": "Feature", "properties": { "StationNam": "楚河汉街", "X": "114.3359170156956", "Y": "30.55620481638897" }, "geometry": { "type": "Point", "coordinates": [ 114.335917015695628, 30.55620481638897 ] } },
{ "type": "Feature", "properties": { "StationNam": "洪山广场", "X": "114.331466865072", "Y": "30.54758510684395" }, "geometry": { "type": "Point", "coordinates": [ 114.331466865072031, 30.547585106843954 ] } },
{ "type": "Feature", "properties": { "StationNam": "梅苑小区", "X": "114.3206777184129", "Y": "30.53330947156732" }, "geometry": { "type": "Point", "coordinates": [ 114.320677718412881, 30.533309471567325 ] } },
{ "type": "Feature", "properties": { "StationNam": "武昌火车站", "X": "114.3109932859348", "Y": "30.53303592780572" }, "geometry": { "type": "Point", "coordinates": [ 114.310993285934757, 30.533035927805724 ] } },
{ "type": "Feature", "properties": { "StationNam": "首义路", "X": "114.3030869429185", "Y": "30.53603734040833" }, "geometry": { "type": "Point", "coordinates": [ 114.303086942918455, 30.536037340408331 ] } },
{ "type": "Feature", "properties": { "StationNam": "复兴路", "X": "114.2957908710973", "Y": "30.53674657494926" }, "geometry": { "type": "Point", "coordinates": [ 114.295790871097324, 30.536746574949259 ] } },
{ "type": "Feature", "properties": { "StationNam": "拦江路", "X": "114.2636024228896", "Y": "30.54539104401228" }, "geometry": { "type": "Point", "coordinates": [ 114.263602422889605, 30.545391044012284 ] } },
{ "type": "Feature", "properties": { "StationNam": "钟家村", "X": "114.2607482404769", "Y": "30.55175677975368" }, "geometry": { "type": "Point", "coordinates": [ 114.2607482404769, 30.551756779753681 ] } },
{ "type": "Feature", "properties": { "StationNam": "汉阳火车站", "X": "114.2474360601425", "Y": "30.55420988583347" }, "geometry": { "type": "Point", "coordinates": [ 114.247436060142519, 30.554209885833469 ] } },
{ "type": "Feature", "properties": { "StationNam": "五里墩", "X": "114.2356826911144", "Y": "30.55645292838076" }, "geometry": { "type": "Point", "coordinates": [ 114.235682691114448, 30.556452928380757 ] } },
{ "type": "Feature", "properties": { "StationNam": "七里庙", "X": "114.225773003435", "Y": "30.55915799000338" }, "geometry": { "type": "Point", "coordinates": [ 114.225773003434981, 30.559157990003381 ] } },
{ "type": "Feature", "properties": { "StationNam": "十里铺", "X": "114.2139886948457", "Y": "30.56177866533768" }, "geometry": { "type": "Point", "coordinates": [ 114.21398869484571, 30.56177866533768 ] } },
{ "type": "Feature", "properties": { "StationNam": "王家湾", "X": "114.2048733946469", "Y": "30.564567648467" }, "geometry": { "type": "Point", "coordinates": [ 114.204873394646924, 30.564567648467005 ] } },
{ "type": "Feature", "properties": { "StationNam": "玉龙路", "X": "114.1959068877086", "Y": "30.56695179801913" }, "geometry": { "type": "Point", "coordinates": [ 114.195906887708617, 30.566951798019126 ] } },
{ "type": "Feature", "properties": { "StationNam": "永安堂", "X": "114.1833896923445", "Y": "30.56885720864352" }, "geometry": { "type": "Point", "coordinates": [ 114.18338969234452, 30.568857208643518 ] } },
{ "type": "Feature", "properties": { "StationNam": "孟家铺", "X": "114.1683289966638", "Y": "30.56737405759268" }, "geometry": { "type": "Point", "coordinates": [ 114.168328996663803, 30.56737405759268 ] } },
{ "type": "Feature", "properties": { "StationNam": "黄金口", "X": "114.1397347581306", "Y": "30.56638806595502" }, "geometry": { "type": "Point", "coordinates": [ 114.139734758130558, 30.566388065955021 ] } },
{ "type": "Feature", "properties": { "StationNam": "新天", "X": "114.1206432486887", "Y": "30.55451006677005" }, "geometry": { "type": "Point", "coordinates": [ 114.120643248688651, 30.554510066770046 ] } },
{ "type": "Feature", "properties": { "StationNam": "集贤", "X": "114.10656494763", "Y": "30.5523868395119" }, "geometry": { "type": "Point", "coordinates": [ 114.106564947629963, 30.552386839511904 ] } },
{ "type": "Feature", "properties": { "StationNam": "知音", "X": "114.0860248659006", "Y": "30.55913924558719" }, "geometry": { "type": "Point", "coordinates": [ 114.086024865900598, 30.55913924558719 ] } },
{ "type": "Feature", "properties": { "StationNam": "新农", "X": "114.0690505657829", "Y": "30.56282633441041" }, "geometry": { "type": "Point", "coordinates": [ 114.06905056578286, 30.562826334410406 ] } },
{ "type": "Feature", "properties": { "StationNam": "凤凰路", "X": "114.0545948691442", "Y": "30.56573504950476" }, "geometry": { "type": "Point", "coordinates": [ 114.054594869144225, 30.56573504950476 ] } },
{ "type": "Feature", "properties": { "StationNam": "蔡甸广场", "X": "114.03603390224", "Y": "30.57541112297105" }, "geometry": { "type": "Point", "coordinates": [ 114.036033902239978, 30.575411122971051 ] } },
{ "type": "Feature", "properties": { "StationNam": "临嶂大道", "X": "114.0229172058693", "Y": "30.57418089428632" }, "geometry": { "type": "Point", "coordinates": [ 114.022917205869348, 30.574180894286322 ] } },
{ "type": "Feature", "properties": { "StationNam": "新庙村", "X": "114.0037542779192", "Y": "30.58226917126827" }, "geometry": { "type": "Point", "coordinates": [ 114.003754277919214, 30.582269171268265 ] } },
{ "type": "Feature", "properties": { "StationNam": "柏林", "X": "113.989305403431", "Y": "30.58471513686939" }, "geometry": { "type": "Point", "coordinates": [ 113.989305403430976, 30.584715136869388 ] } },
{ "type": "Feature", "properties": { "StationNam": "金银湖公园", "X": "114.1753359017466", "Y": "30.63926782724867" }, "geometry": { "type": "Point", "coordinates": [ 114.175335901746649, 30.63926782724867 ] } },
{ "type": "Feature", "properties": { "StationNam": "金银湖", "X": "114.1994541070034", "Y": "30.64171665297497" }, "geometry": { "type": "Point", "coordinates": [ 114.199454107003405, 30.641716652974971 ] } },
{ "type": "Feature", "properties": { "StationNam": "园博园北", "X": "114.2171468172544", "Y": "30.64042109227932" }, "geometry": { "type": "Point", "coordinates": [ 114.217146817254374, 30.640421092279318 ] } },
{ "type": "Feature", "properties": { "StationNam": "轻工大学", "X": "114.2289683269695", "Y": "30.64211952240716" }, "geometry": { "type": "Point", "coordinates": [ 114.228968326969493, 30.64211952240716 ] } },
{ "type": "Feature", "properties": { "StationNam": "常青花园", "X": "114.2384709389716", "Y": "30.64335473094335" }, "geometry": { "type": "Point", "coordinates": [ 114.238470938971616, 30.643354730943354 ] } },
{ "type": "Feature", "properties": { "StationNam": "杨汊湖", "X": "114.2556635766422", "Y": "30.638257051142" }, "geometry": { "type": "Point", "coordinates": [ 114.255663576642192, 30.638257051141998 ] } },
{ "type": "Feature", "properties": { "StationNam": "石桥", "X": "114.2598482799645", "Y": "30.6330801159518" }, "geometry": { "type": "Point", "coordinates": [ 114.259848279964515, 30.633080115951802 ] } },
{ "type": "Feature", "properties": { "StationNam": "唐家墩", "X": "114.2658594583974", "Y": "30.620097347848" }, "geometry": { "type": "Point", "coordinates": [ 114.265859458397401, 30.620097347848002 ] } },
{ "type": "Feature", "properties": { "StationNam": "三眼桥", "X": "114.2703254257856", "Y": "30.61276741754767" }, "geometry": { "type": "Point", "coordinates": [ 114.270325425785558, 30.612767417547669 ] } },
{ "type": "Feature", "properties": { "StationNam": "苗栗路", "X": "114.2845251142033", "Y": "30.60123535483536" }, "geometry": { "type": "Point", "coordinates": [ 114.284525114203262, 30.60123535483536 ] } },
{ "type": "Feature", "properties": { "StationNam": "大智路", "X": "114.2886034152978", "Y": "30.59518387340723" }, "geometry": { "type": "Point", "coordinates": [ 114.288603415297843, 30.595183873407233 ] } },
{ "type": "Feature", "properties": { "StationNam": "江汉路", "X": "114.285361968949", "Y": "30.58179364238072" }, "geometry": { "type": "Point", "coordinates": [ 114.285361968948962, 30.581793642380717 ] } },
{ "type": "Feature", "properties": { "StationNam": "六渡桥", "X": "114.2788501501492", "Y": "30.57743880373647" }, "geometry": { "type": "Point", "coordinates": [ 114.278850150149211, 30.577438803736474 ] } },
{ "type": "Feature", "properties": { "StationNam": "汉正街", "X": "114.2692632635135", "Y": "30.57367744823133" }, "geometry": { "type": "Point", "coordinates": [ 114.26926326351348, 30.573677448231326 ] } },
{ "type": "Feature", "properties": { "StationNam": "武胜路", "X": "114.2635461508998", "Y": "30.57192376197855" }, "geometry": { "type": "Point", "coordinates": [ 114.263546150899785, 30.571923761978546 ] } },
{ "type": "Feature", "properties": { "StationNam": "琴台", "X": "114.2608715203692", "Y": "30.56002981889949" }, "geometry": { "type": "Point", "coordinates": [ 114.260871520369221, 30.560029818899487 ] } },
{ "type": "Feature", "properties": { "StationNam": "马鹦路", "X": "114.2613901683035", "Y": "30.5403592391786" }, "geometry": { "type": "Point", "coordinates": [ 114.261390168303492, 30.540359239178596 ] } },
{ "type": "Feature", "properties": { "StationNam": "建港", "X": "114.2542767185814", "Y": "30.52909356801963" }, "geometry": { "type": "Point", "coordinates": [ 114.254276718581409, 30.529093568019626 ] } },
{ "type": "Feature", "properties": { "StationNam": "前进村", "X": "114.2479560361097", "Y": "30.52263228016114" }, "geometry": { "type": "Point", "coordinates": [ 114.247956036109684, 30.522632280161137 ] } },
{ "type": "Feature", "properties": { "StationNam": "国博中心北", "X": "114.2372369847802", "Y": "30.51307159750375" }, "geometry": { "type": "Point", "coordinates": [ 114.237236984780154, 30.51307159750375 ] } },
{ "type": "Feature", "properties": { "StationNam": "国博中心南", "X": "114.2306850570985", "Y": "30.50852545319747" }, "geometry": { "type": "Point", "coordinates": [ 114.230685057098469, 30.508525453197471 ] } },
{ "type": "Feature", "properties": { "StationNam": "老关村", "X": "114.2204841542351", "Y": "30.49539630955117" }, "geometry": { "type": "Point", "coordinates": [ 114.220484154235081, 30.495396309551172 ] } },
{ "type": "Feature", "properties": { "StationNam": "江城大道", "X": "114.1967278207985", "Y": "30.49884424583647" }, "geometry": { "type": "Point", "coordinates": [ 114.196727820798543, 30.498844245836466 ] } },
{ "type": "Feature", "properties": { "StationNam": "车城东路", "X": "114.1744396532864", "Y": "30.4979690668893" }, "geometry": { "type": "Point", "coordinates": [ 114.174439653286356, 30.497969066889301 ] } },
{ "type": "Feature", "properties": { "StationNam": "东风公司", "X": "114.1626573136153", "Y": "30.50150594879273" }, "geometry": { "type": "Point", "coordinates": [ 114.162657313615341, 30.501505948792733 ] } }
]
}
